[
    {
        "AccessComments": null,
        "AddressLine1": "328 North Main Street",
        "AddressLine2": null,
        "ContactEmail": null,
        "ContactTelephone1": " (435) 752-7355",
        "ContactTelephone2": null,
        "CountryID": 2,
        "DistanceUnit": 0,
        "ID": 8265,
        "Latitude": 41.73759,
        "Longitude": -111.83457,
        "Postcode": "84321",
        "RelatedURL": null,
        "StateOrProvince": "UT",
        "Title": "328 North Main Street",
        "Town": "Logan",
        "DistanceFromCurrentWaypoint": 83.39013304,
        "TripDistance": null
    },
    {
        "AccessComments": "24 hours daily",
        "AddressLine1": "120 N Church St",
        "AddressLine2": null,
        "ContactEmail": null,
        "ContactTelephone1": "888-758-4389",
        "ContactTelephone2": null,
        "CountryID": 2,
        "DistanceUnit": 0,
        "ID": 71894,
        "Latitude": 41.7335956,
        "Longitude": -111.8337,
        "Postcode": "84321",
        "RelatedURL": null,
        "StateOrProvince": "UT",
        "Title": "FEDERAL AVE",
        "Town": "Logan",
        "DistanceFromCurrentWaypoint": 390.64339303,
        "TripDistance": null
    },
    {
        "AccessComments": null,
        "AddressLine1": "635 S Riverwoods Pkwy",
        "AddressLine2": null,
        "ContactEmail": null,
        "ContactTelephone1": "(435) 750-5180",
        "ContactTelephone2": null,
        "CountryID": 2,
        "DistanceUnit": 0,
        "ID": 109435,
        "Latitude": 41.720914,
        "Longitude": -111.833857,
        "Postcode": "84321",
        "RelatedURL": null,
        "StateOrProvince": "Utah",
        "Title": "Marriott Logan",
        "Town": "Logan",
        "DistanceFromCurrentWaypoint": 1799.08678589,
        "TripDistance": null
    },
    {
        "AccessComments": null,
        "AddressLine1": "635 S Riverwoods Pkwy",
        "AddressLine2": null,
        "ContactEmail": null,
        "ContactTelephone1": "(435) 750-5180",
        "ContactTelephone2": null,
        "CountryID": 2,
        "DistanceUnit": 0,
        "ID": 102401,
        "Latitude": 41.720914,
        "Longitude": -111.833857,
        "Postcode": "84321",
        "RelatedURL": null,
        "StateOrProvince": "Utah",
        "Title": "Springhill Suites Logan",
        "Town": "Logan",
        "DistanceFromCurrentWaypoint": 1799.08678589,
        "TripDistance": null
    },
    {
        "AccessComments": "24 hours daily",
        "AddressLine1": "748 E Main St",
        "AddressLine2": null,
        "ContactEmail": null,
        "ContactTelephone1": "888-758-4389",
        "ContactTelephone2": null,
        "CountryID": 2,
        "DistanceUnit": 0,
        "ID": 106143,
        "Latitude": 41.643879,
        "Longitude": -111.914097,
        "Postcode": "84339",
        "RelatedURL": null,
        "StateOrProvince": "UT",
        "Title": "MAVERIK",
        "Town": "Wellsville",
        "DistanceFromCurrentWaypoint": 4740.21498194,
        "TripDistance": null
    },
    {
        "AccessComments": "24 hours daily",
        "AddressLine1": "1874 W 2700 N",
        "AddressLine2": null,
        "ContactEmail": null,
        "ContactTelephone1": "888-758-4389",
        "ContactTelephone2": null,
        "CountryID": 2,
        "DistanceUnit": 0,
        "ID": 110945,
        "Latitude": 41.307097,
        "Longitude": -112.024261,
        "Postcode": "84404",
        "RelatedURL": null,
        "StateOrProvince": "UT",
        "Title": "MAVERIK",
        "Town": "Farr West",
        "DistanceFromCurrentWaypoint": 4368.18181231,
        "TripDistance": null
    },
    {
        "AccessComments": "Dealership business hours",
        "AddressLine1": "615 W Riverdale Rd",
        "AddressLine2": null,
        "ContactEmail": null,
        "ContactTelephone1": "801-781-4500",
        "ContactTelephone2": null,
        "CountryID": 2,
        "DistanceUnit": 0,
        "ID": 14577,
        "Latitude": 41.180064,
        "Longitude": -111.993926,
        "Postcode": "84405",
        "RelatedURL": null,
        "StateOrProvince": "UT",
        "Title": "Ken Garff Nissan - Riverdale",
        "Town": "Riverdale",
        "DistanceFromCurrentWaypoint": 3856.7383082,
        "TripDistance": null
    },
    {
        "AccessComments": null,
        "AddressLine1": "5554 S 1900 W",
        "AddressLine2": null,
        "ContactEmail": null,
        "ContactTelephone1": "(801) 614-1263",
        "ContactTelephone2": null,
        "CountryID": 2,
        "DistanceUnit": 0,
        "ID": 9663,
        "Latitude": 41.1624308,
        "Longitude": -112.0258821,
        "Postcode": "84607",
        "RelatedURL": null,
        "StateOrProvince": "UT",
        "Title": "5554 S 1900 W",
        "Town": "Roy",
        "DistanceFromCurrentWaypoint": 3803.52444065,
        "TripDistance": null
    },
    {
        "AccessComments": null,
        "AddressLine1": "1962 W 1800 N",
        "AddressLine2": null,
        "ContactEmail": null,
        "ContactTelephone1": "(801) 614-1347",
        "ContactTelephone2": null,
        "CountryID": 2,
        "DistanceUnit": 0,
        "ID": 12893,
        "Latitude": 41.145828,
        "Longitude": -112.049904,
        "Postcode": "84041",
        "RelatedURL": null,
        "StateOrProvince": "UT",
        "Title": "1962 W 1800 N",
        "Town": "Clinton",
        "DistanceFromCurrentWaypoint": 3760.82791136,
        "TripDistance": null
    },
    {
        "AccessComments": null,
        "AddressLine1": "1711 North Main Street",
        "AddressLine2": null,
        "ContactEmail": null,
        "ContactTelephone1": "(877) 236-9128",
        "ContactTelephone2": null,
        "CountryID": 2,
        "DistanceUnit": 0,
        "ID": 12892,
        "Latitude": 41.085622,
        "Longitude": -111.998115,
        "Postcode": "84041",
        "RelatedURL": null,
        "StateOrProvince": "UT",
        "Title": "1711 North Main Street",
        "Town": "Layton",
        "DistanceFromCurrentWaypoint": 4160.81353631,
        "TripDistance": null
    },
    {
        "AccessComments": null,
        "AddressLine1": "1171 W 2000 N Antelope Dr",
        "AddressLine2": null,
        "ContactEmail": null,
        "ContactTelephone1": "801-614-1302",
        "ContactTelephone2": null,
        "CountryID": 2,
        "DistanceUnit": 0,
        "ID": 12890,
        "Latitude": 41.088766,
        "Longitude": -111.987303,
        "Postcode": "84041",
        "RelatedURL": null,
        "StateOrProvince": "UT",
        "Title": "1171 W 2000 N Antelope Dr",
        "Town": "Layton",
        "DistanceFromCurrentWaypoint": 4337.68475283,
        "TripDistance": null
    },
    {
        "AccessComments": null,
        "AddressLine1": "210 N Main St",
        "AddressLine2": null,
        "ContactEmail": null,
        "ContactTelephone1": "(801) 529-1434",
        "ContactTelephone2": null,
        "CountryID": 2,
        "DistanceUnit": 0,
        "ID": 9660,
        "Latitude": 41.038233,
        "Longitude": -111.9385015,
        "Postcode": "84037",
        "RelatedURL": null,
        "StateOrProvince": "UT",
        "Title": "210 N Main St",
        "Town": "Kaysville",
        "DistanceFromCurrentWaypoint": 4758.57645699,
        "TripDistance": null
    },
    {
        "AccessComments": "24 hours daily",
        "AddressLine1": "Broadway",
        "AddressLine2": null,
        "ContactEmail": null,
        "ContactTelephone1": "888-758-4389",
        "ContactTelephone2": null,
        "CountryID": 2,
        "DistanceUnit": 0,
        "ID": 90000,
        "Latitude": 40.987957,
        "Longitude": -111.910432,
        "Postcode": "84025",
        "RelatedURL": null,
        "StateOrProvince": "UT",
        "Title": "AAA NCNU",
        "Town": "Farmington",
        "DistanceFromCurrentWaypoint": 3448.40440359,
        "TripDistance": null
    },
    {
        "AccessComments": "24 hours daily",
        "AddressLine1": "142 N Union Ave",
        "AddressLine2": null,
        "ContactEmail": null,
        "ContactTelephone1": "888-758-4389",
        "ContactTelephone2": null,
        "CountryID": 2,
        "DistanceUnit": 0,
        "ID": 103215,
        "Latitude": 40.983208,
        "Longitude": -111.9080521,
        "Postcode": "84025",
        "RelatedURL": null,
        "StateOrProvince": "UT",
        "Title": "SPX CHARGEPOINT",
        "Town": "Farmington",
        "DistanceFromCurrentWaypoint": 3980.06223036,
        "TripDistance": null
    },
    {
        "AccessComments": null,
        "AddressLine1": "332 W Park LN",
        "AddressLine2": null,
        "ContactEmail": null,
        "ContactTelephone1": "(801) 451-7999",
        "ContactTelephone2": null,
        "CountryID": 2,
        "DistanceUnit": 0,
        "ID": 98235,
        "Latitude": 40.991943,
        "Longitude": -111.89546,
        "Postcode": "84025",
        "RelatedURL": null,
        "StateOrProvince": "Utah",
        "Title": "Hampton Inn and Suites Salt Lake City/farmington",
        "Town": "Farmington",
        "DistanceFromCurrentWaypoint": 4146.82696286,
        "TripDistance": null
    },
    {
        "AccessComments": null,
        "AddressLine1": "515 S 500 W",
        "AddressLine2": null,
        "ContactEmail": null,
        "ContactTelephone1": "(801) 294-9107",
        "ContactTelephone2": null,
        "CountryID": 2,
        "DistanceUnit": 0,
        "ID": 9661,
        "Latitude": 40.8838816,
        "Longitude": -111.8921864,
        "Postcode": "84010",
        "RelatedURL": null,
        "StateOrProvince": "UT",
        "Title": "515 S 500 W",
        "Town": "Bountiful",
        "DistanceFromCurrentWaypoint": 4745.2469092,
        "TripDistance": null
    },
    {
        "AccessComments": null,
        "AddressLine1": "1644 S 270 E",
        "AddressLine2": null,
        "ContactEmail": null,
        "ContactTelephone1": "(435) 674-4997",
        "ContactTelephone2": null,
        "CountryID": 2,
        "DistanceUnit": 0,
        "ID": 105319,
        "Latitude": 40.871612,
        "Longitude": -111.89216,
        "Postcode": "84010",
        "RelatedURL": null,
        "StateOrProvince": "Utah",
        "Title": "My Place Hotel St. George",
        "Town": "St. George",
        "DistanceFromCurrentWaypoint": 4793.24953192,
        "TripDistance": null
    },
    {
        "AccessComments": null,
        "AddressLine1": "955 N 400 E",
        "AddressLine2": null,
        "ContactEmail": null,
        "ContactTelephone1": " (801) 693-7100",
        "ContactTelephone2": null,
        "CountryID": 2,
        "DistanceUnit": 0,
        "ID": 8268,
        "Latitude": 40.85913,
        "Longitude": -111.90299,
        "Postcode": "84054",
        "RelatedURL": null,
        "StateOrProvince": "UT",
        "Title": "955 N 400 E",
        "Town": "North Salt Lake",
        "DistanceFromCurrentWaypoint": 3583.5748443,
        "TripDistance": null
    },
    {
        "AccessComments": null,
        "AddressLine1": "485 N 2360 W",
        "AddressLine2": null,
        "ContactEmail": null,
        "ContactTelephone1": "(385) 715-7192",
        "ContactTelephone2": null,
        "CountryID": 2,
        "DistanceUnit": 0,
        "ID": 101190,
        "Latitude": 40.779503,
        "Longitude": -111.957862,
        "Postcode": "84116",
        "RelatedURL": null,
        "StateOrProvince": "Utah",
        "Title": "Atlantic Aviation - Salt Lake City",
        "Town": "Salt Lake City",
        "DistanceFromCurrentWaypoint": 4139.93649527,
        "TripDistance": null
    },
    {
        "AccessComments": null,
        "AddressLine1": "1969 West North Temple",
        "AddressLine2": null,
        "ContactEmail": null,
        "ContactTelephone1": "801-355-PARK (7275)",
        "ContactTelephone2": null,
        "CountryID": 2,
        "DistanceUnit": 0,
        "ID": 9099,
        "Latitude": 40.77124,
        "Longitude": -111.94697,
        "Postcode": "84116",
        "RelatedURL": null,
        "StateOrProvince": "Utah",
        "Title": "1969 West North Temple",
        "Town": "Salt Lake City",
        "DistanceFromCurrentWaypoint": 4328.5145709,
        "TripDistance": null
    },
    {
        "AccessComments": "24 hours daily",
        "AddressLine1": "Utah State Capitol East Lot",
        "AddressLine2": null,
        "ContactEmail": null,
        "ContactTelephone1": "888-758-4389",
        "ContactTelephone2": null,
        "CountryID": 2,
        "DistanceUnit": 0,
        "ID": 28784,
        "Latitude": 40.7778594,
        "Longitude": -111.886957,
        "Postcode": "84103",
        "RelatedURL": null,
        "StateOrProvince": "UT",
        "Title": "CAPITOL",
        "Town": "Salt Lake City",
        "DistanceFromCurrentWaypoint": 4329.6427799,
        "TripDistance": null
    },
    {
        "AccessComments": "24 hours daily",
        "AddressLine1": "230 W North Temple",
        "AddressLine2": null,
        "ContactEmail": null,
        "ContactTelephone1": "888-758-4389",
        "ContactTelephone2": null,
        "CountryID": 2,
        "DistanceUnit": 0,
        "ID": 103194,
        "Latitude": 40.7716,
        "Longitude": -111.897747,
        "Postcode": "84103",
        "RelatedURL": null,
        "StateOrProvince": "UT",
        "Title": "SEASONSCC",
        "Town": "Salt Lake City",
        "DistanceFromCurrentWaypoint": 4338.62205996,
        "TripDistance": null
    },
    {
        "AccessComments": "24 hours daily",
        "AddressLine1": "324 10th Ave",
        "AddressLine2": null,
        "ContactEmail": null,
        "ContactTelephone1": "888-758-4389",
        "ContactTelephone2": null,
        "CountryID": 2,
        "DistanceUnit": 0,
        "ID": 106133,
        "Latitude": 40.780519,
        "Longitude": -111.8801738,
        "Postcode": "84103",
        "RelatedURL": null,
        "StateOrProvince": "UT",
        "Title": "SCO",
        "Town": "Salt Lake City",
        "DistanceFromCurrentWaypoint": 4561.94971123,
        "TripDistance": null
    },
    {
        "AccessComments": "  The Hilton Salt Lake City Center hotel is nestled in the downtown business district just eight minutes from the Salt Lake International Airport and across the street from the Salt Palace Convention Center.  Hilton Salt Lake City Center is perfectly situated for business and leisure travelers.  We are within three blocks of more than 60 restaurants and two shopping malls, EnergySolutions Arena (home of the Utah Jazz), historic Temple Square and the Family History Library.     Driving from Salt Lake City International Airport:   The Hilton Salt Lake City Center hotel is located just seven miles from Salt Lake City International Airport, with an approximate drive time of ten minutes.  If you choose to drive from Salt Lake City International Airport, follow signs for I-80 Eastbound (City Center). Take I-80 East and exit at 600 South. Follow 600 South to West Temple (Four lights). Turn left on West Temple and the Hilton Salt Lake City Center hotel is three and a half blocks on the right.  Distance from hotel: 7 miles Drive time: 10 min.  Driving from the South on Interstate 15: Exit I-15 at 600 South, then follow 600 South to West Temple. Turn left on West Temple and the Hilton Salt Lake City Center hotel is three and a half blocks on the right.  Driving from the North on Interstate 15: Exit I-15 at 400 South, then take a left. Follow 400 South to West Temple and turn left on West Temple. The Hilton Salt Lake City Center hotel is one and a half blocks on the right.  Driving from the West on Interstate 80: Follow I-80 as it merges with I-15 Northbound. Exit I-80/I-15 at 600 South. Follow 600 South to West Temple, then turn left on West Temple. The Hilton Salt Lake City Center hotel is three and a half blocks on the right.  Driving from the East, from Interstate 80 West (Wyoming) or from Interstate 70 West (Colorado). Follow as the interstate merges with I-15 Northbound, then exit at 600 South. Follow 600 South to West Temple and then turn left on West Temple. The Hilton Salt Lake City Center hotel is three and a half blocks on the right.",
        "AddressLine1": "255 W South Temple ",
        "AddressLine2": "",
        "ContactEmail": "slc.hotelinfo@hilton.com",
        "ContactTelephone1": " 1-801-328-2000",
        "ContactTelephone2": "",
        "CountryID": 2,
        "DistanceUnit": 0,
        "ID": 13240,
        "Latitude": 40.768922,
        "Longitude": -111.89851,
        "Postcode": " 84101",
        "RelatedURL": null,
        "StateOrProvince": "Utah",
        "Title": "City Center Hilton",
        "Town": "Salt Lake City",
        "DistanceFromCurrentWaypoint": 4570.86188483,
        "TripDistance": null
    },
    {
        "AccessComments": null,
        "AddressLine1": "2200 W North Temple",
        "AddressLine2": null,
        "ContactEmail": null,
        "ContactTelephone1": "",
        "ContactTelephone2": null,
        "CountryID": 2,
        "DistanceUnit": 0,
        "ID": 9204,
        "Latitude": 40.770016,
        "Longitude": -111.951874,
        "Postcode": "",
        "RelatedURL": null,
        "StateOrProvince": "UT",
        "Title": "2200 W North Temple",
        "Town": "Salt Lake City",
        "DistanceFromCurrentWaypoint": 4652.50763475,
        "TripDistance": null
    },
    {
        "AccessComments": "24 hours daily",
        "AddressLine1": "383 C St E",
        "AddressLine2": null,
        "ContactEmail": null,
        "ContactTelephone1": "888-758-4389",
        "ContactTelephone2": null,
        "CountryID": 2,
        "DistanceUnit": 0,
        "ID": 106132,
        "Latitude": 40.778202,
        "Longitude": -111.880779,
        "Postcode": "84103",
        "RelatedURL": null,
        "StateOrProvince": "UT",
        "Title": "SCO",
        "Town": "Salt Lake City",
        "DistanceFromCurrentWaypoint": 4684.9901535,
        "TripDistance": null
    },
    {
        "AccessComments": null,
        "AddressLine1": "138 South Main Street",
        "AddressLine2": null,
        "ContactEmail": null,
        "ContactTelephone1": "",
        "ContactTelephone2": null,
        "CountryID": 2,
        "DistanceUnit": 0,
        "ID": 8275,
        "Latitude": 40.76628,
        "Longitude": -111.8912,
        "Postcode": "",
        "RelatedURL": null,
        "StateOrProvince": "Utah",
        "Title": "138 South Main Street",
        "Town": "Salt Lake City",
        "DistanceFromCurrentWaypoint": 4067.41182129,
        "TripDistance": null
    },
    {
        "AccessComments": null,
        "AddressLine1": "255 South West Temple",
        "AddressLine2": null,
        "ContactEmail": null,
        "ContactTelephone1": "",
        "ContactTelephone2": null,
        "CountryID": 2,
        "DistanceUnit": 0,
        "ID": 13259,
        "Latitude": 40.76395,
        "Longitude": -111.8934,
        "Postcode": "84101",
        "RelatedURL": null,
        "StateOrProvince": "UT",
        "Title": "255 South West Temple",
        "Town": "Salt Lake City",
        "DistanceFromCurrentWaypoint": 4188.49664334,
        "TripDistance": null
    },
    {
        "AccessComments": null,
        "AddressLine1": "255 S W Temple",
        "AddressLine2": null,
        "ContactEmail": null,
        "ContactTelephone1": "(801) 328-2000",
        "ContactTelephone2": null,
        "CountryID": 2,
        "DistanceUnit": 0,
        "ID": 109679,
        "Latitude": 40.7639,
        "Longitude": -111.893096,
        "Postcode": "84101",
        "RelatedURL": null,
        "StateOrProvince": "Utah",
        "Title": "Hilton Salt Lake City Center",
        "Town": "Salt Lake City",
        "DistanceFromCurrentWaypoint": 4206.16830691,
        "TripDistance": null
    },
    {
        "AccessComments": null,
        "AddressLine1": "255 S W Temple",
        "AddressLine2": null,
        "ContactEmail": null,
        "ContactTelephone1": "(801) 238-4895",
        "ContactTelephone2": null,
        "CountryID": 2,
        "DistanceUnit": 0,
        "ID": 109275,
        "Latitude": 40.7639,
        "Longitude": -111.893096,
        "Postcode": "84101",
        "RelatedURL": null,
        "StateOrProvince": "Utah",
        "Title": "American Plaza Garage",
        "Town": "Salt Lake City",
        "DistanceFromCurrentWaypoint": 4206.16830691,
        "TripDistance": null
    },
    {
        "AccessComments": "24 hours daily",
        "AddressLine1": "150 S 200 E",
        "AddressLine2": null,
        "ContactEmail": null,
        "ContactTelephone1": "888-758-4389",
        "ContactTelephone2": null,
        "CountryID": 2,
        "DistanceUnit": 0,
        "ID": 103189,
        "Latitude": 40.766064,
        "Longitude": -111.885551,
        "Postcode": "84138",
        "RelatedURL": null,
        "StateOrProvince": "UT",
        "Title": "LIBERTY CREST",
        "Town": "Salt Lake City",
        "DistanceFromCurrentWaypoint": 4370.98123701,
        "TripDistance": null
    },
    {
        "AccessComments": "24 hours daily",
        "AddressLine1": "150 S 200 E",
        "AddressLine2": null,
        "ContactEmail": null,
        "ContactTelephone1": "888-758-4389",
        "ContactTelephone2": null,
        "CountryID": 2,
        "DistanceUnit": 0,
        "ID": 103188,
        "Latitude": 40.764822,
        "Longitude": -111.886568,
        "Postcode": "84111",
        "RelatedURL": null,
        "StateOrProvince": "UT",
        "Title": "LIBERTY CREST",
        "Town": "Salt Lake City",
        "DistanceFromCurrentWaypoint": 4426.66114453,
        "TripDistance": null
    },
    {
        "AccessComments": null,
        "AddressLine1": "55 East 300 South",
        "AddressLine2": null,
        "ContactEmail": null,
        "ContactTelephone1": "",
        "ContactTelephone2": null,
        "CountryID": 2,
        "DistanceUnit": 0,
        "ID": 8274,
        "Latitude": 40.7629,
        "Longitude": -111.88955,
        "Postcode": "84105",
        "RelatedURL": null,
        "StateOrProvince": "Utah",
        "Title": "55 East 300 South",
        "Town": "Salt",
        "DistanceFromCurrentWaypoint": 4457.43022575,
        "TripDistance": null
    },
    {
        "AccessComments": "24 hours daily",
        "AddressLine1": "35 W 500 S",
        "AddressLine2": null,
        "ContactEmail": null,
        "ContactTelephone1": "888-758-4389",
        "ContactTelephone2": null,
        "CountryID": 2,
        "DistanceUnit": 0,
        "ID": 106131,
        "Latitude": 40.758288,
        "Longitude": -111.892187,
        "Postcode": "84101",
        "RelatedURL": null,
        "StateOrProvince": "UT",
        "Title": "DOWNTOWN DA",
        "Town": "Salt Lake City",
        "DistanceFromCurrentWaypoint": 4789.71480575,
        "TripDistance": null
    },
    {
        "AccessComments": "24 hours daily; for Tesla use only",
        "AddressLine1": "161 W 600 S",
        "AddressLine2": null,
        "ContactEmail": null,
        "ContactTelephone1": "801-521-7373  877-798-3752",
        "ContactTelephone2": null,
        "CountryID": 2,
        "DistanceUnit": 0,
        "ID": 67720,
        "Latitude": 40.7558948,
        "Longitude": -111.8951103,
        "Postcode": "84101",
        "RelatedURL": null,
        "StateOrProvince": "UT",
        "Title": "Red Lion Hotel - Tesla",
        "Town": "Salt Lake City",
        "DistanceFromCurrentWaypoint": 3904.60914467,
        "TripDistance": null
    },
    {
        "AccessComments": "24 hours daily; for Tesla use only; for guest use only; see valet for access",
        "AddressLine1": "555 S Main St",
        "AddressLine2": null,
        "ContactEmail": null,
        "ContactTelephone1": "801-258-6000  877-798-3752",
        "ContactTelephone2": null,
        "CountryID": 2,
        "DistanceUnit": 0,
        "ID": 57707,
        "Latitude": 40.7574479,
        "Longitude": -111.890297,
        "Postcode": "84111",
        "RelatedURL": null,
        "StateOrProvince": "UT",
        "Title": "Grand America Hotel - Tesla",
        "Town": "Salt Lake City",
        "DistanceFromCurrentWaypoint": 3940.26277175,
        "TripDistance": null
    },
    {
        "AccessComments": null,
        "AddressLine1": "210 East 400 South",
        "AddressLine2": null,
        "ContactEmail": null,
        "ContactTelephone1": "(801) 524-8200",
        "ContactTelephone2": null,
        "CountryID": 2,
        "DistanceUnit": 0,
        "ID": 8273,
        "Latitude": 40.76035,
        "Longitude": -111.88351,
        "Postcode": "84111",
        "RelatedURL": null,
        "StateOrProvince": "Utah",
        "Title": "210 East 400 South",
        "Town": "Salt Lake City",
        "DistanceFromCurrentWaypoint": 4011.44615088,
        "TripDistance": null
    },
    {
        "AccessComments": "7:30am-10pm daily; pay lot; maximum session time of 4 hours",
        "AddressLine1": "210 E 400 S",
        "AddressLine2": null,
        "ContactEmail": null,
        "ContactTelephone1": "801-535-6630",
        "ContactTelephone2": null,
        "CountryID": 2,
        "DistanceUnit": 0,
        "ID": 3076,
        "Latitude": 40.759561,
        "Longitude": -111.883924,
        "Postcode": "84111",
        "RelatedURL": null,
        "StateOrProvince": "UT",
        "Title": "Salt Lake City Main Library",
        "Town": "Salt Lake City",
        "DistanceFromCurrentWaypoint": 4056.57551518,
        "TripDistance": null
    },
    {
        "AccessComments": "24 hours daily",
        "AddressLine1": "310 500 S",
        "AddressLine2": null,
        "ContactEmail": null,
        "ContactTelephone1": "888-758-4389",
        "ContactTelephone2": null,
        "CountryID": 2,
        "DistanceUnit": 0,
        "ID": 103185,
        "Latitude": 40.758222,
        "Longitude": -111.881984,
        "Postcode": "84111",
        "RelatedURL": null,
        "StateOrProvince": "UT",
        "Title": "SEASONSLS",
        "Town": "Salt Lake City",
        "DistanceFromCurrentWaypoint": 4275.40371199,
        "TripDistance": null
    },
    {
        "AccessComments": "Dealership business hours",
        "AddressLine1": "777 SW Temple",
        "AddressLine2": null,
        "ContactEmail": null,
        "ContactTelephone1": "801-322-5663",
        "ContactTelephone2": null,
        "CountryID": 2,
        "DistanceUnit": 0,
        "ID": 28754,
        "Latitude": 40.75259,
        "Longitude": -111.893299,
        "Postcode": "84101",
        "RelatedURL": null,
        "StateOrProvince": "UT",
        "Title": "Ken Garff Nissan - Salt Lake City",
        "Town": "Salt Lake City",
        "DistanceFromCurrentWaypoint": 4302.03080598,
        "TripDistance": null
    },
    {
        "AccessComments": "",
        "AddressLine1": "920 S 700 W",
        "AddressLine2": null,
        "ContactEmail": null,
        "ContactTelephone1": "",
        "ContactTelephone2": null,
        "CountryID": 2,
        "DistanceUnit": 0,
        "ID": 28761,
        "Latitude": 40.749027,
        "Longitude": -111.911084,
        "Postcode": "84101",
        "RelatedURL": null,
        "StateOrProvince": "UT",
        "Title": "Utah Paper Box",
        "Town": "Salt Lake City",
        "DistanceFromCurrentWaypoint": 4326.39322014,
        "TripDistance": null
    },
    {
        "AccessComments": "24 hours daily",
        "AddressLine1": "1060 S 900 W International Peace Gardens",
        "AddressLine2": null,
        "ContactEmail": null,
        "ContactTelephone1": "888-758-4389",
        "ContactTelephone2": null,
        "CountryID": 2,
        "DistanceUnit": 0,
        "ID": 110909,
        "Latitude": 40.7468562,
        "Longitude": -111.9193426,
        "Postcode": "84104",
        "RelatedURL": null,
        "StateOrProvince": "UT",
        "Title": "PUBLIC USE",
        "Town": "Salt Lake City",
        "DistanceFromCurrentWaypoint": 4579.77753142,
        "TripDistance": null
    },
    {
        "AccessComments": null,
        "AddressLine1": "1021 South Constitution Dr. (520 East)",
        "AddressLine2": null,
        "ContactEmail": null,
        "ContactTelephone1": "",
        "ContactTelephone2": null,
        "CountryID": 2,
        "DistanceUnit": 0,
        "ID": 8272,
        "Latitude": 40.74683,
        "Longitude": -111.87634,
        "Postcode": "84105",
        "RelatedURL": null,
        "StateOrProvince": "Utah",
        "Title": "1021 South Constitution Dr. (520 East)",
        "Town": "Salt Lake City",
        "DistanceFromCurrentWaypoint": 4404.01754771,
        "TripDistance": null
    },
    {
        "AccessComments": "24 hours daily; maximum session time of 4 hours",
        "AddressLine1": "1021 S Constitution Dr",
        "AddressLine2": null,
        "ContactEmail": null,
        "ContactTelephone1": "801-535-6630",
        "ContactTelephone2": null,
        "CountryID": 2,
        "DistanceUnit": 0,
        "ID": 3073,
        "Latitude": 40.74686,
        "Longitude": -111.876,
        "Postcode": "84119",
        "RelatedURL": null,
        "StateOrProvince": "UT",
        "Title": "Liberty Park",
        "Town": "Salt Lake City",
        "DistanceFromCurrentWaypoint": 4420.47232071,
        "TripDistance": null
    },
    {
        "AccessComments": "24 hours daily",
        "AddressLine1": "1385 So. State St.",
        "AddressLine2": null,
        "ContactEmail": null,
        "ContactTelephone1": "888-758-4389",
        "ContactTelephone2": null,
        "CountryID": 2,
        "DistanceUnit": 0,
        "ID": 97053,
        "Latitude": 40.7397511,
        "Longitude": -111.8871133,
        "Postcode": "84115",
        "RelatedURL": null,
        "StateOrProvince": "UT",
        "Title": "DCFS",
        "Town": "Salt Lake City",
        "DistanceFromCurrentWaypoint": 4558.37836986,
        "TripDistance": null
    },
    {
        "AccessComments": null,
        "AddressLine1": "876 South 800 East",
        "AddressLine2": null,
        "ContactEmail": null,
        "ContactTelephone1": "",
        "ContactTelephone2": null,
        "CountryID": 2,
        "DistanceUnit": 0,
        "ID": 8270,
        "Latitude": 40.74988,
        "Longitude": -111.86821,
        "Postcode": "84102",
        "RelatedURL": null,
        "StateOrProvince": "UT",
        "Title": "876 South 800 East",
        "Town": "Salt Lake City",
        "DistanceFromCurrentWaypoint": 4659.98627852,
        "TripDistance": null
    },
    {
        "AccessComments": null,
        "AddressLine1": "870 E 800 S",
        "AddressLine2": null,
        "ContactEmail": null,
        "ContactTelephone1": "801-355-2801 ",
        "ContactTelephone2": null,
        "CountryID": 2,
        "DistanceUnit": 0,
        "ID": 8267,
        "Latitude": 40.75144,
        "Longitude": -111.86622,
        "Postcode": "84102",
        "RelatedURL": null,
        "StateOrProvince": "UT",
        "Title": "870 E 800 S",
        "Town": "Salt Lake City",
        "DistanceFromCurrentWaypoint": 4684.76904412,
        "TripDistance": null
    },
    {
        "AccessComments": "24 hours daily",
        "AddressLine1": "1575 South State St",
        "AddressLine2": null,
        "ContactEmail": null,
        "ContactTelephone1": "888-758-4389",
        "ContactTelephone2": null,
        "CountryID": 2,
        "DistanceUnit": 0,
        "ID": 52431,
        "Latitude": 40.735711,
        "Longitude": -111.8869256,
        "Postcode": "84115",
        "RelatedURL": null,
        "StateOrProvince": "UT",
        "Title": "EVSLCC",
        "Town": "Salt Lake City",
        "DistanceFromCurrentWaypoint": 4186.94614056,
        "TripDistance": null
    },
    {
        "AccessComments": "Store business hours",
        "AddressLine1": "1818 S 300 W",
        "AddressLine2": null,
        "ContactEmail": null,
        "ContactTelephone1": "801-485-9715",
        "ContactTelephone2": null,
        "CountryID": 2,
        "DistanceUnit": 0,
        "ID": 57704,
        "Latitude": 40.730776,
        "Longitude": -111.899687,
        "Postcode": "84115",
        "RelatedURL": null,
        "StateOrProvince": "UT",
        "Title": "Costco",
        "Town": "Salt Lake City",
        "DistanceFromCurrentWaypoint": 4275.02203302,
        "TripDistance": null
    },
    {
        "AccessComments": "24 hours daily; for Tesla use only",
        "AddressLine1": "2312 S State St",
        "AddressLine2": null,
        "ContactEmail": null,
        "ContactTelephone1": "877-798-3752",
        "ContactTelephone2": null,
        "CountryID": 2,
        "DistanceUnit": 0,
        "ID": 47770,
        "Latitude": 40.720616,
        "Longitude": -111.8887785,
        "Postcode": "84115",
        "RelatedURL": null,
        "StateOrProvince": "UT",
        "Title": "Tesla Service Center",
        "Town": "South Salt Lake",
        "DistanceFromCurrentWaypoint": 4401.55255262,
        "TripDistance": null
    },
    {
        "AccessComments": "8am-5pm daily",
        "AddressLine1": "2630 S 300 W",
        "AddressLine2": null,
        "ContactEmail": null,
        "ContactTelephone1": "801-518-3529",
        "ContactTelephone2": null,
        "CountryID": 2,
        "DistanceUnit": 0,
        "ID": 13803,
        "Latitude": 40.714413,
        "Longitude": -111.900552,
        "Postcode": "84115",
        "RelatedURL": null,
        "StateOrProvince": "UT",
        "Title": "American Bush - Solar Canopy",
        "Town": "Salt Lake City",
        "DistanceFromCurrentWaypoint": 4722.14119212,
        "TripDistance": null
    },
    {
        "AccessComments": null,
        "AddressLine1": "2626 South 300 West",
        "AddressLine2": null,
        "ContactEmail": null,
        "ContactTelephone1": "801-518-3529",
        "ContactTelephone2": null,
        "CountryID": 2,
        "DistanceUnit": 0,
        "ID": 8922,
        "Latitude": 40.714464,
        "Longitude": -111.89984,
        "Postcode": "84115-2911",
        "RelatedURL": null,
        "StateOrProvince": "Utah",
        "Title": "2626 South 300 West",
        "Town": "South Salt Lake",
        "DistanceFromCurrentWaypoint": 4729.61393591,
        "TripDistance": null
    },
    {
        "AccessComments": null,
        "AddressLine1": "2375 South 900 East",
        "AddressLine2": null,
        "ContactEmail": null,
        "ContactTelephone1": "",
        "ContactTelephone2": null,
        "CountryID": 2,
        "DistanceUnit": 0,
        "ID": 8271,
        "Latitude": 40.7189,
        "Longitude": -111.86486,
        "Postcode": "84106",
        "RelatedURL": null,
        "StateOrProvince": "Utah",
        "Title": "2375 South 900 East",
        "Town": "Salt Lake City",
        "DistanceFromCurrentWaypoint": 3425.95931788,
        "TripDistance": null
    },
    {
        "AccessComments": "24 hours daily",
        "AddressLine1": "2010 S 2760 W",
        "AddressLine2": null,
        "ContactEmail": null,
        "ContactTelephone1": "888-758-4389",
        "ContactTelephone2": null,
        "CountryID": 2,
        "DistanceUnit": 0,
        "ID": 71870,
        "Latitude": 40.727496,
        "Longitude": -111.95984,
        "Postcode": "84104",
        "RelatedURL": null,
        "StateOrProvince": "UT",
        "Title": "STATE OF UTAH",
        "Town": "Salt Lake City",
        "DistanceFromCurrentWaypoint": 4676.86397075,
        "TripDistance": null
    },
    {
        "AccessComments": "Dealership business hours",
        "AddressLine1": "4528 S State St",
        "AddressLine2": null,
        "ContactEmail": null,
        "ContactTelephone1": "801-262-5521  855-900-7584",
        "ContactTelephone2": null,
        "CountryID": 2,
        "DistanceUnit": 0,
        "ID": 14328,
        "Latitude": 40.672936,
        "Longitude": -111.889147,
        "Postcode": "84107",
        "RelatedURL": null,
        "StateOrProvince": "UT",
        "Title": "Tim Dahle Nissan",
        "Town": "Murray",
        "DistanceFromCurrentWaypoint": 4740.95929069,
        "TripDistance": null
    },
    {
        "AccessComments": null,
        "AddressLine1": "4668 S Redwood Rd",
        "AddressLine2": null,
        "ContactEmail": null,
        "ContactTelephone1": "801-967-4972",
        "ContactTelephone2": null,
        "CountryID": 2,
        "DistanceUnit": 0,
        "ID": 9666,
        "Latitude": 40.66866,
        "Longitude": -111.9388824,
        "Postcode": "84123",
        "RelatedURL": null,
        "StateOrProvince": "UT",
        "Title": "4668 S Redwood Rd",
        "Town": "Taylorsville",
        "DistanceFromCurrentWaypoint": 4116.39964035,
        "TripDistance": null
    },
    {
        "AccessComments": "24 hours daily",
        "AddressLine1": "4365 S 2200 W",
        "AddressLine2": null,
        "ContactEmail": null,
        "ContactTelephone1": "888-758-4389",
        "ContactTelephone2": null,
        "CountryID": 2,
        "DistanceUnit": 0,
        "ID": 48578,
        "Latitude": 40.6759345,
        "Longitude": -111.9475445,
        "Postcode": "84119",
        "RelatedURL": null,
        "StateOrProvince": "UT",
        "Title": "EVSLCC",
        "Town": "Salt Lake City",
        "DistanceFromCurrentWaypoint": 4256.67949784,
        "TripDistance": null
    },
    {
        "AccessComments": "24 hours daily",
        "AddressLine1": "4501 South 2700 West",
        "AddressLine2": null,
        "ContactEmail": null,
        "ContactTelephone1": "888-758-4389",
        "ContactTelephone2": null,
        "CountryID": 2,
        "DistanceUnit": 0,
        "ID": 41123,
        "Latitude": 40.671893,
        "Longitude": -111.954997,
        "Postcode": "84119",
        "RelatedURL": null,
        "StateOrProvince": "UT",
        "Title": "STATE OF UTAH",
        "Town": "Salt Lake City",
        "DistanceFromCurrentWaypoint": 4559.91119922,
        "TripDistance": null
    },
    {
        "AccessComments": null,
        "AddressLine1": "7227 S State St",
        "AddressLine2": null,
        "ContactEmail": null,
        "ContactTelephone1": "(801) 307-0494",
        "ContactTelephone2": null,
        "CountryID": 2,
        "DistanceUnit": 0,
        "ID": 9664,
        "Latitude": 40.6204996,
        "Longitude": -111.8905268,
        "Postcode": "84047",
        "RelatedURL": null,
        "StateOrProvince": "UT",
        "Title": "7227 S State St",
        "Town": "Midvale",
        "DistanceFromCurrentWaypoint": 4555.92854405,
        "TripDistance": null
    },
    {
        "AccessComments": "24 hours daily",
        "AddressLine1": "9750 South 300 West",
        "AddressLine2": null,
        "ContactEmail": null,
        "ContactTelephone1": "888-758-4389",
        "ContactTelephone2": null,
        "CountryID": 2,
        "DistanceUnit": 0,
        "ID": 94721,
        "Latitude": 40.5742058,
        "Longitude": -111.9013994,
        "Postcode": "84070",
        "RelatedURL": null,
        "StateOrProvince": "UT",
        "Title": "EVSLCC",
        "Town": "Sandy",
        "DistanceFromCurrentWaypoint": 4493.74368227,
        "TripDistance": null
    },
    {
        "AccessComments": "24 hours daily",
        "AddressLine1": "213 Civic Center Dr",
        "AddressLine2": null,
        "ContactEmail": null,
        "ContactTelephone1": "888-758-4389",
        "ContactTelephone2": null,
        "CountryID": 2,
        "DistanceUnit": 0,
        "ID": 110889,
        "Latitude": 40.571883,
        "Longitude": -111.897059,
        "Postcode": "84070",
        "RelatedURL": null,
        "StateOrProvince": "UT",
        "Title": "CITY CENTER",
        "Town": "Sandy",
        "DistanceFromCurrentWaypoint": 4795.87036647,
        "TripDistance": null
    },
    {
        "AccessComments": "24 hours daily",
        "AddressLine1": "10008 Creek Run Way",
        "AddressLine2": null,
        "ContactEmail": null,
        "ContactTelephone1": "888-758-4389",
        "ContactTelephone2": null,
        "CountryID": 2,
        "DistanceUnit": 0,
        "ID": 94720,
        "Latitude": 40.569497,
        "Longitude": -111.888565,
        "Postcode": "84070",
        "RelatedURL": null,
        "StateOrProvince": "UT",
        "Title": "DCFS",
        "Town": "Sandy",
        "DistanceFromCurrentWaypoint": 2984.78904135,
        "TripDistance": null
    },
    {
        "AccessComments": null,
        "AddressLine1": "10499 S Jordan Gateway",
        "AddressLine2": null,
        "ContactEmail": null,
        "ContactTelephone1": "(801) 553-1151",
        "ContactTelephone2": null,
        "CountryID": 2,
        "DistanceUnit": 0,
        "ID": 95423,
        "Latitude": 40.561312,
        "Longitude": -111.901938,
        "Postcode": "84095",
        "RelatedURL": null,
        "StateOrProvince": "Utah",
        "Title": "Holiday Inn South Jordan - SLC South",
        "Town": "South Jordan",
        "DistanceFromCurrentWaypoint": 3637.7191858,
        "TripDistance": null
    },
    {
        "AccessComments": null,
        "AddressLine1": "10785 Auto Mall Dr",
        "AddressLine2": null,
        "ContactEmail": null,
        "ContactTelephone1": " (801) 495-3800",
        "ContactTelephone2": null,
        "CountryID": 2,
        "DistanceUnit": 0,
        "ID": 8276,
        "Latitude": 40.55578,
        "Longitude": -111.89374,
        "Postcode": "84070",
        "RelatedURL": null,
        "StateOrProvince": "UT",
        "Title": "10785 Auto Mall Dr",
        "Town": "Sandy",
        "DistanceFromCurrentWaypoint": 4320.91183597,
        "TripDistance": null
    },
    {
        "AccessComments": "Dealership business hours",
        "AddressLine1": "11155 S Jordan Gateway",
        "AddressLine2": null,
        "ContactEmail": null,
        "ContactTelephone1": "801-727-4651",
        "ContactTelephone2": null,
        "CountryID": 2,
        "DistanceUnit": 0,
        "ID": 56939,
        "Latitude": 40.548839,
        "Longitude": -111.897475,
        "Postcode": "84095",
        "RelatedURL": null,
        "StateOrProvince": "UT",
        "Title": "Tim Dahle Nissan Southtowne",
        "Town": "South Jordan",
        "DistanceFromCurrentWaypoint": 3745.17362684,
        "TripDistance": null
    },
    {
        "AccessComments": "24 hours daily",
        "AddressLine1": "170 West Election Rd",
        "AddressLine2": null,
        "ContactEmail": null,
        "ContactTelephone1": "888-758-4389",
        "ContactTelephone2": null,
        "CountryID": 2,
        "DistanceUnit": 0,
        "ID": 91813,
        "Latitude": 40.5364571,
        "Longitude": -111.895384,
        "Postcode": "84020",
        "RelatedURL": null,
        "StateOrProvince": "UT",
        "Title": "LONE PEAK 6",
        "Town": "Draper",
        "DistanceFromCurrentWaypoint": 3077.51982939,
        "TripDistance": null
    },
    {
        "AccessComments": "24 hours daily",
        "AddressLine1": "1101 Draper Pkwy",
        "AddressLine2": null,
        "ContactEmail": null,
        "ContactTelephone1": "888-758-4389",
        "ContactTelephone2": null,
        "CountryID": 2,
        "DistanceUnit": 0,
        "ID": 90283,
        "Latitude": 40.529191,
        "Longitude": -111.859257,
        "Postcode": "84020",
        "RelatedURL": null,
        "StateOrProvince": "UT",
        "Title": "TREEHOUSE EV",
        "Town": "Draper",
        "DistanceFromCurrentWaypoint": 4708.21825529,
        "TripDistance": null
    },
    {
        "AccessComments": "MO: Not Specified; TU: Not Specified; WE: Not Specified; TH: Not Specified; FR: Not Specified; SA: Not Specified; SU: Not Specified",
        "AddressLine1": "1311 Draper Parkway",
        "AddressLine2": null,
        "ContactEmail": null,
        "ContactTelephone1": "800-663-5633",
        "ContactTelephone2": null,
        "CountryID": 2,
        "DistanceUnit": 0,
        "ID": 28700,
        "Latitude": 40.528369,
        "Longitude": -111.853705,
        "Postcode": "84020",
        "RelatedURL": null,
        "StateOrProvince": "UT",
        "Title": "Walgreens - Draper, UT #6281",
        "Town": "Draper",
        "DistanceFromCurrentWaypoint": 4672.10478608,
        "TripDistance": null
    },
    {
        "AccessComments": null,
        "AddressLine1": "12623 S Redwood Rd",
        "AddressLine2": null,
        "ContactEmail": null,
        "ContactTelephone1": "(801) 254-4916",
        "ContactTelephone2": null,
        "CountryID": 2,
        "DistanceUnit": 0,
        "ID": 9667,
        "Latitude": 40.521744,
        "Longitude": -111.938073,
        "Postcode": "84065",
        "RelatedURL": null,
        "StateOrProvince": "UT",
        "Title": "12623 S Redwood Rd",
        "Town": "Riverton",
        "DistanceFromCurrentWaypoint": 4739.05215115,
        "TripDistance": null
    },
    {
        "AccessComments": null,
        "AddressLine1": "176 E 13800 S",
        "AddressLine2": null,
        "ContactEmail": null,
        "ContactTelephone1": "(801) 307-1003",
        "ContactTelephone2": null,
        "CountryID": 2,
        "DistanceUnit": 0,
        "ID": 9534,
        "Latitude": 40.500259,
        "Longitude": -111.885519,
        "Postcode": "84020",
        "RelatedURL": null,
        "StateOrProvince": "UT",
        "Title": "176 E 13800 S",
        "Town": "Draper",
        "DistanceFromCurrentWaypoint": 4499.15227183,
        "TripDistance": null
    },
    {
        "AccessComments": "24 hours daily",
        "AddressLine1": "14814 Minuteman Dr",
        "AddressLine2": null,
        "ContactEmail": null,
        "ContactTelephone1": "888-758-4389",
        "ContactTelephone2": null,
        "CountryID": 2,
        "DistanceUnit": 0,
        "ID": 106121,
        "Latitude": 40.482223,
        "Longitude": -111.897011,
        "Postcode": "84020",
        "RelatedURL": null,
        "StateOrProvince": "UT",
        "Title": "MAVERIK",
        "Town": "Draper",
        "DistanceFromCurrentWaypoint": 4361.48287262,
        "TripDistance": null
    },
    {
        "AccessComments": "24 hours daily",
        "AddressLine1": "15 W Scenic Pointe Dr",
        "AddressLine2": null,
        "ContactEmail": null,
        "ContactTelephone1": "888-758-4389",
        "ContactTelephone2": null,
        "CountryID": 2,
        "DistanceUnit": 0,
        "ID": 106120,
        "Latitude": 40.480593,
        "Longitude": -111.892022,
        "Postcode": "84020",
        "RelatedURL": null,
        "StateOrProvince": "UT",
        "Title": "HEALTHEQUITY",
        "Town": "Draper",
        "DistanceFromCurrentWaypoint": 4516.21625114,
        "TripDistance": null
    },
    {
        "AccessComments": null,
        "AddressLine1": "Adobe Way",
        "AddressLine2": null,
        "ContactEmail": null,
        "ContactTelephone1": "(801) 766-2500",
        "ContactTelephone2": null,
        "CountryID": 2,
        "DistanceUnit": 0,
        "ID": 89239,
        "Latitude": 40.43706156,
        "Longitude": -111.8897656,
        "Postcode": "84043",
        "RelatedURL": null,
        "StateOrProvince": "Utah",
        "Title": "Adobe Way",
        "Town": "Lehi",
        "DistanceFromCurrentWaypoint": 4645.12548615,
        "TripDistance": null
    },
    {
        "AccessComments": "24 hours daily",
        "AddressLine1": "3900 N Adobe Way",
        "AddressLine2": null,
        "ContactEmail": null,
        "ContactTelephone1": "888-758-4389",
        "ContactTelephone2": null,
        "CountryID": 2,
        "DistanceUnit": 0,
        "ID": 28653,
        "Latitude": 40.434205,
        "Longitude": -111.890303,
        "Postcode": "84043",
        "RelatedURL": null,
        "StateOrProvince": "UT",
        "Title": "ADOBE LEI",
        "Town": "Lehi",
        "DistanceFromCurrentWaypoint": 437.65575959,
        "TripDistance": null
    },
    {
        "AccessComments": "24 hours daily",
        "AddressLine1": "3400 Ashton Blvd",
        "AddressLine2": null,
        "ContactEmail": null,
        "ContactTelephone1": "888-758-4389",
        "ContactTelephone2": null,
        "CountryID": 2,
        "DistanceUnit": 0,
        "ID": 110880,
        "Latitude": 40.4297782,
        "Longitude": -111.8943629,
        "Postcode": "84043",
        "RelatedURL": null,
        "StateOrProvince": "UT",
        "Title": "TPARK",
        "Town": "Lehi",
        "DistanceFromCurrentWaypoint": 638.7694005,
        "TripDistance": null
    },
    {
        "AccessComments": "24 hours daily",
        "AddressLine1": "2600 Ashton Blvd",
        "AddressLine2": null,
        "ContactEmail": null,
        "ContactTelephone1": "888-758-4389",
        "ContactTelephone2": null,
        "CountryID": 2,
        "DistanceUnit": 0,
        "ID": 110879,
        "Latitude": 40.4206922,
        "Longitude": -111.887817,
        "Postcode": "84043",
        "RelatedURL": null,
        "StateOrProvince": "UT",
        "Title": "SOLUTIONREACH",
        "Town": "Lehi",
        "DistanceFromCurrentWaypoint": 1758.57719983,
        "TripDistance": null
    },
    {
        "AccessComments": null,
        "AddressLine1": "102 N 1200 E",
        "AddressLine2": null,
        "ContactEmail": null,
        "ContactTelephone1": "(801) 653-2090",
        "ContactTelephone2": null,
        "CountryID": 2,
        "DistanceUnit": 0,
        "ID": 9665,
        "Latitude": 40.389223,
        "Longitude": -111.826161,
        "Postcode": "84043",
        "RelatedURL": null,
        "StateOrProvince": "UT",
        "Title": "102 N 1200 E",
        "Town": "Lehi",
        "DistanceFromCurrentWaypoint": 4062.18590415,
        "TripDistance": null
    },
    {
        "AccessComments": "24 hours daily",
        "AddressLine1": "2111 W Grove Pkwy",
        "AddressLine2": null,
        "ContactEmail": null,
        "ContactTelephone1": "888-758-4389",
        "ContactTelephone2": null,
        "CountryID": 2,
        "DistanceUnit": 0,
        "ID": 28635,
        "Latitude": 40.3521972,
        "Longitude": -111.769819,
        "Postcode": "84062",
        "RelatedURL": null,
        "StateOrProvince": "UT",
        "Title": "BMW OF PG",
        "Town": "Pleasant Grove",
        "DistanceFromCurrentWaypoint": 4235.9316125,
        "TripDistance": null
    },
    {
        "AccessComments": "MO: Not Specified; TU: Not Specified; WE: Not Specified; TH: Not Specified; FR: Not Specified; SA: Not Specified; SU: Not Specified",
        "AddressLine1": "815 W State Rd",
        "AddressLine2": null,
        "ContactEmail": null,
        "ContactTelephone1": "800-663-5633",
        "ContactTelephone2": null,
        "CountryID": 2,
        "DistanceUnit": 0,
        "ID": 28638,
        "Latitude": 40.3659539,
        "Longitude": -111.7515523,
        "Postcode": "84062",
        "RelatedURL": null,
        "StateOrProvince": "UT",
        "Title": "Walgreens - Pleasant Grove, UT #1776",
        "Town": "Pleasant Grove",
        "DistanceFromCurrentWaypoint": 3358.91898633,
        "TripDistance": null
    },
    {
        "AccessComments": null,
        "AddressLine1": "815 W State Rd",
        "AddressLine2": null,
        "ContactEmail": null,
        "ContactTelephone1": "(801) 922-4256",
        "ContactTelephone2": null,
        "CountryID": 2,
        "DistanceUnit": 0,
        "ID": 12891,
        "Latitude": 40.368258,
        "Longitude": -111.751299,
        "Postcode": "84062",
        "RelatedURL": null,
        "StateOrProvince": "UT",
        "Title": "815 W State Rd",
        "Town": "Pleasant Grove",
        "DistanceFromCurrentWaypoint": 3407.42207916,
        "TripDistance": null
    },
    {
        "AccessComments": null,
        "AddressLine1": "763 N State St",
        "AddressLine2": null,
        "ContactEmail": null,
        "ContactTelephone1": "(801) 734-1624",
        "ContactTelephone2": null,
        "CountryID": 2,
        "DistanceUnit": 0,
        "ID": 12889,
        "Latitude": 40.3207374,
        "Longitude": -111.705368,
        "Postcode": "84057",
        "RelatedURL": null,
        "StateOrProvince": "UT",
        "Title": "763 N State St",
        "Town": "Orem",
        "DistanceFromCurrentWaypoint": 2810.90849378,
        "TripDistance": null
    },
    {
        "AccessComments": "MO: Not Specified; TU: Not Specified; WE: Not Specified; TH: Not Specified; FR: Not Specified; SA: Not Specified; SU: Not Specified",
        "AddressLine1": "763 N State St",
        "AddressLine2": null,
        "ContactEmail": null,
        "ContactTelephone1": "800-663-5633",
        "ContactTelephone2": null,
        "CountryID": 2,
        "DistanceUnit": 0,
        "ID": 28629,
        "Latitude": 40.3112412,
        "Longitude": -111.7012595,
        "Postcode": "84057",
        "RelatedURL": null,
        "StateOrProvince": "UT",
        "Title": "Walgreens - Orem, UT #9192",
        "Town": "Orem",
        "DistanceFromCurrentWaypoint": 3597.64455935,
        "TripDistance": null
    },
    {
        "AccessComments": "24 hours daily",
        "AddressLine1": "3-21 Center St",
        "AddressLine2": null,
        "ContactEmail": null,
        "ContactTelephone1": "888-758-4389",
        "ContactTelephone2": null,
        "CountryID": 2,
        "DistanceUnit": 0,
        "ID": 89964,
        "Latitude": 40.2975197,
        "Longitude": -111.6943979,
        "Postcode": "84057",
        "RelatedURL": null,
        "StateOrProvince": "UT",
        "Title": "CC STATION1",
        "Town": "Orem",
        "DistanceFromCurrentWaypoint": 3960.41783315,
        "TripDistance": null
    },
    {
        "AccessComments": "24 hours daily",
        "AddressLine1": "586 E 800 N",
        "AddressLine2": null,
        "ContactEmail": null,
        "ContactTelephone1": "801-229-3800",
        "ContactTelephone2": null,
        "CountryID": 2,
        "DistanceUnit": 0,
        "ID": 68704,
        "Latitude": 40.311431,
        "Longitude": -111.681877,
        "Postcode": "84097",
        "RelatedURL": null,
        "StateOrProvince": "UT",
        "Title": "Mountainland Association of Governments",
        "Town": "Orem",
        "DistanceFromCurrentWaypoint": 4084.36169882,
        "TripDistance": null
    },
    {
        "AccessComments": "24 hours daily",
        "AddressLine1": "785 W 1000 S",
        "AddressLine2": null,
        "ContactEmail": null,
        "ContactTelephone1": "888-758-4389",
        "ContactTelephone2": null,
        "CountryID": 2,
        "DistanceUnit": 0,
        "ID": 110874,
        "Latitude": 40.2793412,
        "Longitude": -111.7145162,
        "Postcode": "84058",
        "RelatedURL": null,
        "StateOrProvince": "UT",
        "Title": "UVU",
        "Town": "Orem",
        "DistanceFromCurrentWaypoint": 4280.44797281,
        "TripDistance": null
    },
    {
        "AccessComments": "24 hours daily",
        "AddressLine1": "936 S 400 W St",
        "AddressLine2": null,
        "ContactEmail": null,
        "ContactTelephone1": "888-758-4389",
        "ContactTelephone2": null,
        "CountryID": 2,
        "DistanceUnit": 0,
        "ID": 52430,
        "Latitude": 40.2803159,
        "Longitude": -111.7054253,
        "Postcode": "84058",
        "RelatedURL": null,
        "StateOrProvince": "UT",
        "Title": "UVU",
        "Town": "Orem",
        "DistanceFromCurrentWaypoint": 4422.8318301,
        "TripDistance": null
    },
    {
        "AccessComments": "24 hours daily",
        "AddressLine1": "601 College Dr",
        "AddressLine2": null,
        "ContactEmail": null,
        "ContactTelephone1": "888-758-4389",
        "ContactTelephone2": null,
        "CountryID": 2,
        "DistanceUnit": 0,
        "ID": 110873,
        "Latitude": 40.2787774,
        "Longitude": -111.7094095,
        "Postcode": "84058",
        "RelatedURL": null,
        "StateOrProvince": "UT",
        "Title": "UVU",
        "Town": "Orem",
        "DistanceFromCurrentWaypoint": 4460.53713536,
        "TripDistance": null
    },
    {
        "AccessComments": "24 hours daily",
        "AddressLine1": "College Dr",
        "AddressLine2": null,
        "ContactEmail": null,
        "ContactTelephone1": "888-758-4389",
        "ContactTelephone2": null,
        "CountryID": 2,
        "DistanceUnit": 0,
        "ID": 52429,
        "Latitude": 40.2762501,
        "Longitude": -111.7149763,
        "Postcode": "84058",
        "RelatedURL": null,
        "StateOrProvince": "UT",
        "Title": "UVU",
        "Town": "Orem",
        "DistanceFromCurrentWaypoint": 4606.81217363,
        "TripDistance": null
    },
    {
        "AccessComments": null,
        "AddressLine1": "285 W University Pkwy",
        "AddressLine2": null,
        "ContactEmail": null,
        "ContactTelephone1": " (801) 225-1300",
        "ContactTelephone2": null,
        "CountryID": 2,
        "DistanceUnit": 0,
        "ID": 8269,
        "Latitude": 40.27347,
        "Longitude": -111.70213,
        "Postcode": "84058",
        "RelatedURL": null,
        "StateOrProvince": "UT",
        "Title": "285 W University Pkwy",
        "Town": "Orem",
        "DistanceFromCurrentWaypoint": 4267.73215615,
        "TripDistance": null
    },
    {
        "AccessComments": null,
        "AddressLine1": "1315 N State St",
        "AddressLine2": null,
        "ContactEmail": null,
        "ContactTelephone1": "(801) 616-5223",
        "ContactTelephone2": null,
        "CountryID": 2,
        "DistanceUnit": 0,
        "ID": 9533,
        "Latitude": 40.251619,
        "Longitude": -111.668754,
        "Postcode": "84604",
        "RelatedURL": null,
        "StateOrProvince": "UT",
        "Title": "1315 N State St",
        "Town": "Provo",
        "DistanceFromCurrentWaypoint": 4583.94816533,
        "TripDistance": null
    },
    {
        "AccessComments": "24 hours daily; for Tesla use only; for guest use only; see front desk for access",
        "AddressLine1": "101 W 100 N",
        "AddressLine2": null,
        "ContactEmail": null,
        "ContactTelephone1": "801-377-4700  877-798-3752",
        "ContactTelephone2": null,
        "CountryID": 2,
        "DistanceUnit": 0,
        "ID": 57689,
        "Latitude": 40.235113,
        "Longitude": -111.660511,
        "Postcode": "84601",
        "RelatedURL": null,
        "StateOrProvince": "UT",
        "Title": "Provo Marriott Hotel and Conference Center - Tesla",
        "Town": "Provo",
        "DistanceFromCurrentWaypoint": 2431.36224995,
        "TripDistance": null
    },
    {
        "AccessComments": null,
        "AddressLine1": "420 S Main St",
        "AddressLine2": null,
        "ContactEmail": null,
        "ContactTelephone1": "(801) 853-1214",
        "ContactTelephone2": null,
        "CountryID": 2,
        "DistanceUnit": 0,
        "ID": 9659,
        "Latitude": 40.1607816,
        "Longitude": -111.6106957,
        "Postcode": "84663",
        "RelatedURL": null,
        "StateOrProvince": "UT",
        "Title": "420 S Main St",
        "Town": "Springville",
        "DistanceFromCurrentWaypoint": 4790.27230137,
        "TripDistance": null
    },
    {
        "AccessComments": "24 hours daily; for Tesla use only",
        "AddressLine1": "925 Westwood Blvd",
        "AddressLine2": null,
        "ContactEmail": null,
        "ContactTelephone1": "877-798-3752",
        "ContactTelephone2": null,
        "CountryID": 2,
        "DistanceUnit": 0,
        "ID": 110811,
        "Latitude": 39.603797,
        "Longitude": -110.833863,
        "Postcode": "84501",
        "RelatedURL": null,
        "StateOrProvince": "UT",
        "Title": "Holiday Inn Express - Tesla Supercharger",
        "Town": "Price",
        "DistanceFromCurrentWaypoint": 4739.34306352,
        "TripDistance": null
    },
    {
        "AccessComments": "24 hours daily; for Tesla use only",
        "AddressLine1": "925 Westwood Blvd",
        "AddressLine2": null,
        "ContactEmail": null,
        "ContactTelephone1": "877-798-3752",
        "ContactTelephone2": null,
        "CountryID": 2,
        "DistanceUnit": 0,
        "ID": 62446,
        "Latitude": 39.6016773,
        "Longitude": -110.8331845,
        "Postcode": "85401",
        "RelatedURL": null,
        "StateOrProvince": "UT",
        "Title": "Holiday Inn Express - Tesla",
        "Town": "Price",
        "DistanceFromCurrentWaypoint": 1858.33171958,
        "TripDistance": null
    },
    {
        "AccessComments": "24 hours daily; for Tesla use only",
        "AddressLine1": "1765 E Main St",
        "AddressLine2": null,
        "ContactEmail": null,
        "ContactTelephone1": "877-798-3752",
        "ContactTelephone2": null,
        "CountryID": 2,
        "DistanceUnit": 0,
        "ID": 28300,
        "Latitude": 38.9930088,
        "Longitude": -110.1399956,
        "Postcode": "84525",
        "RelatedURL": null,
        "StateOrProvince": "UT",
        "Title": "River History Museum - Tesla",
        "Town": "Green River",
        "DistanceFromCurrentWaypoint": 3706.9488693,
        "TripDistance": null
    },
    {
        "AccessComments": null,
        "AddressLine1": "132 N Main St",
        "AddressLine2": null,
        "ContactEmail": null,
        "ContactTelephone1": "(435) 259-7000",
        "ContactTelephone2": null,
        "CountryID": 2,
        "DistanceUnit": 0,
        "ID": 106496,
        "Latitude": 38.575547,
        "Longitude": -109.550033,
        "Postcode": "84532",
        "RelatedURL": null,
        "StateOrProvince": "Utah",
        "Title": "Homewood Suites By Hilton Moab",
        "Town": "Moab",
        "DistanceFromCurrentWaypoint": 4763.73175832,
        "TripDistance": null
    },
    {
        "AccessComments": "24 hours daily",
        "AddressLine1": "16 S Main St",
        "AddressLine2": null,
        "ContactEmail": null,
        "ContactTelephone1": "877-798-3752",
        "ContactTelephone2": null,
        "CountryID": 2,
        "DistanceUnit": 0,
        "ID": 21371,
        "Latitude": 38.5730092,
        "Longitude": -109.5507944,
        "Postcode": "84532",
        "RelatedURL": null,
        "StateOrProvince": "UT",
        "Title": "Best Western Plus Canyonlands - Tesla",
        "Town": "Moab",
        "DistanceFromCurrentWaypoint": 4783.85438834,
        "TripDistance": null
    }
]